[{"name":"Urban Studio","type":"Dance Studio","contentType":"GROUP_TRAINING","status":"CLOSED","image":"https://pronadjiusrbiji.rs/wp-content/uploads/2016/12/1482599611_plessnsturbdanng_logo.jpg","location":{"latitude":45,"longitude":25,"address":{"street":"Milentija Popovica 1","city":"Beograd","number":"11000","country":"Serbia"}},"businessHours": "9-15h","rating": "1","isDeleted":false}, {"name":"Sydney Olympic Park Sports Halls","type":"Sports hall","contentType":"GROUP_TRAINING","status":"OPEN","image":"https://cdn.australia247.info/assets/uploads/516039d043274de18c99dbee179bab79_-new-south-wales-city-of-parramatta-council-sydney-olympic-park-sydney-olympic-park-sports-halls-02-9714-7600html.jpg","location":{"latitude":45,"longitude":25,"address":{"street":"Grand Parade 2127","city":"Sydney Olympic Park NSW","number":"2127","country":"Australia"}},"businessHours": "9-15h","rating": "2","isDeleted":false},{"name":"Sport Center Dom Sportova Kosutnjak","type":"Pool","contentType":"GROUP_TRAINING","status":"OPEN","image":"http://directory.serbia.com/wp-content/uploads/2014/02/8.jpg","location":{"latitude":45,"longitude":25,"address":{"street":"Blagoja Parovica 146","city":"Beograd","number":11000,"country":"Serbia"}},"businessHours": "9-15h","rating": "3","isDeleted":false},{"name":"MASTER GYM Constanta","type":"Gym","contentType":"GROUP_TRAINING","status":"OPEN","image":"https://s3.publi24.ro/vertical-ro-f646bd5a/large/20210914/1438/c7e2b899244654d3d3cca144053b5cc7.jpg","location":{"latitude":45,"longitude":25,"address":{"street":"Strada Interioara 3","city":"Constan»õa","number":"900330","country":"Romania"}},"businessHours": "9-15h","rating": "4","isDeleted":false},{"name":"Sports centre Vojvodina","type":"Sports Centre","contentType":"GROUP_TRAINING","status":"OPEN","image":"http://www.tiketklub.com/wp-content/uploads/2012/09/2.jpg","location":{"latitude":45,"longitude":25,"address":{"street":"Sutjeska 2","city":"Novi Sad","number":"21000","country":"Serbia"}},"businessHours": "9-15h","rating": "5","isDeleted":false},{"name":"Oasis Sports Centre","type":"Sports Centre","contentType":"GROUP_TRAINING","status":"OPEN","image":"https://offloadmedia.feverup.com/secretldn.com/wp-content/uploads/2021/07/28044324/oasis-sports-centre-swimming-pool-1024x721.jpeg","location":{"latitude":45,"longitude":25,"address":{"street":"32 Endell St","city":"London","number":"WC2H 9AG","country":"United Kingdom"}},"businessHours": "9-15h","rating": "6","isDeleted":false}]